{
"type": "FeatureCollection",
"crs": { "type": "name", "properties": { "name": "urn:ogc:def:crs:OGC:1.3:CRS84" } },
                                                                                
"features": [
{ "type": "Feature", "properties": { "name": "Beverly Shores", "STATEFP": 18, "NAMELSAD": "Beverly Shores town", "GEOID": "1805158" }, "geometry": { "type": "Point", "coordinates": [ -86.9787744, 41.6911478 ] } },
{ "type": "Feature", "properties": { "name": "Burns Harbor", "STATEFP": 18, "NAMELSAD": "Burns Harbor town", "GEOID": "1809370" }, "geometry": { "type": "Point", "coordinates": [ -87.1240745, 41.620256 ] } },
{ "type": "Feature", "properties": { "name": "Dune Acres", "STATEFP": 18, "NAMELSAD": "Dune Acres town", "GEOID": "1818982" }, "geometry": { "type": "Point", "coordinates": [ -87.0902682, 41.6517725 ] } },
{ "type": "Feature", "properties": { "name": "Long Beach", "STATEFP": 18, "NAMELSAD": "Long Beach town", "GEOID": "1844784" }, "geometry": { "type": "Point", "coordinates": [ -86.85625, 41.7450873 ] } },
{ "type": "Feature", "properties": { "name": "Ogden Dunes", "STATEFP": 18, "NAMELSAD": "Ogden Dunes town", "GEOID": "1856088" }, "geometry": { "type": "Point", "coordinates": [ -87.1935637, 41.628425 ] } },
{ "type": "Feature", "properties": { "name": "Porter", "STATEFP": 18, "NAMELSAD": "Porter town", "GEOID": "1861164" }, "geometry": { "type": "Point", "coordinates": [ -87.082744, 41.6275443 ] } },
{ "type": "Feature", "properties": { "name": "Newton", "STATEFP": 55, "NAMELSAD": "Newton town", "GEOID": "5507157200" }, "geometry": { "type": "Point", "coordinates": [ -87.7455614, 44.0209687 ] } },
{ "type": "Feature", "properties": { "name": "Holland", "STATEFP": 55, "NAMELSAD": "Holland town", "GEOID": "5511735375" }, "geometry": { "type": "Point", "coordinates": [ -87.8541478, 43.5905552 ] } },
{ "type": "Feature", "properties": { "name": "Mosel", "STATEFP": 55, "NAMELSAD": "Mosel town", "GEOID": "5511754475" }, "geometry": { "type": "Point", "coordinates": [ -87.7662372, 43.8412873 ] } },
{ "type": "Feature", "properties": { "name": "Sheboygan", "STATEFP": 55, "NAMELSAD": "Sheboygan town", "GEOID": "5511773000" }, "geometry": { "type": "Point", "coordinates": [ -87.7693966, 43.7806118 ] } },
{ "type": "Feature", "properties": { "name": "Wilson", "STATEFP": 55, "NAMELSAD": "Wilson town", "GEOID": "5511787500" }, "geometry": { "type": "Point", "coordinates": [ -87.759947, 43.6710113 ] } },
{ "type": "Feature", "properties": { "name": "Two Creeks", "STATEFP": 55, "NAMELSAD": "Two Creeks town", "GEOID": "5507181300" }, "geometry": { "type": "Point", "coordinates": [ -87.5554878, 44.275158 ] } },
{ "type": "Feature", "properties": { "name": "Peshtigo", "STATEFP": 55, "NAMELSAD": "Peshtigo town", "GEOID": "5507562200" }, "geometry": { "type": "Point", "coordinates": [ -87.6543611, 44.9869082 ] } },
{ "type": "Feature", "properties": { "name": "Oconto", "STATEFP": 55, "NAMELSAD": "Oconto town", "GEOID": "5508359375" }, "geometry": { "type": "Point", "coordinates": [ -87.9411992, 44.8886402 ] } },
{ "type": "Feature", "properties": { "name": "Sanborn", "STATEFP": 55, "NAMELSAD": "Sanborn town", "GEOID": "5500371350" }, "geometry": { "type": "Point", "coordinates": [ -90.6796907, 46.5444245 ] } },
{ "type": "Feature", "properties": { "name": "Port Washington", "STATEFP": 55, "NAMELSAD": "Port Washington town", "GEOID": "5508964475" }, "geometry": { "type": "Point", "coordinates": [ -87.8824402, 43.4415575 ] } },
{ "type": "Feature", "properties": { "name": "Somers", "STATEFP": 55, "NAMELSAD": "Somers town", "GEOID": "5505974650" }, "geometry": { "type": "Point", "coordinates": [ -87.8928118, 42.633162 ] } },
{ "type": "Feature", "properties": { "name": "Belgium", "STATEFP": 55, "NAMELSAD": "Belgium town", "GEOID": "5508906175" }, "geometry": { "type": "Point", "coordinates": [ -87.8907718, 43.483629 ] } },
{ "type": "Feature", "properties": { "name": "Grafton", "STATEFP": 55, "NAMELSAD": "Grafton town", "GEOID": "5508930025" }, "geometry": { "type": "Point", "coordinates": [ -87.897925, 43.3534497 ] } },
{ "type": "Feature", "properties": { "name": "Pierce", "STATEFP": 55, "NAMELSAD": "Pierce town", "GEOID": "5506162625" }, "geometry": { "type": "Point", "coordinates": [ -87.4904735, 44.5355975 ] } },
{ "type": "Feature", "properties": { "name": "Red River", "STATEFP": 55, "NAMELSAD": "Red River town", "GEOID": "5506166700" }, "geometry": { "type": "Point", "coordinates": [ -87.6830852, 44.6439022 ] } },
{ "type": "Feature", "properties": { "name": "West Kewaunee", "STATEFP": 55, "NAMELSAD": "West Kewaunee town", "GEOID": "5506185775" }, "geometry": { "type": "Point", "coordinates": [ -87.5844162, 44.451635 ] } },
{ "type": "Feature", "properties": { "name": "Little River", "STATEFP": 55, "NAMELSAD": "Little River town", "GEOID": "5508345175" }, "geometry": { "type": "Point", "coordinates": [ -87.9020808, 44.9665892 ] } },
{ "type": "Feature", "properties": { "name": "Cloverland", "STATEFP": 55, "NAMELSAD": "Cloverland town", "GEOID": "5503115825" }, "geometry": { "type": "Point", "coordinates": [ -91.639363, 46.7117555 ] } },
{ "type": "Feature", "properties": { "name": "Lakeside", "STATEFP": 55, "NAMELSAD": "Lakeside town", "GEOID": "5503141800" }, "geometry": { "type": "Point", "coordinates": [ -91.8409098, 46.6766586 ] } },
{ "type": "Feature", "properties": { "name": "Superior", "STATEFP": 55, "NAMELSAD": "Superior town", "GEOID": "5503178675" }, "geometry": { "type": "Point", "coordinates": [ -92.162614, 46.5838735 ] } },
{ "type": "Feature", "properties": { "name": "La Pointe", "STATEFP": 55, "NAMELSAD": "La Pointe town", "GEOID": "5500342562" }, "geometry": { "type": "Point", "coordinates": [ -90.5708301, 46.9406451 ] } },
{ "type": "Feature", "properties": { "name": "Ahnapee", "STATEFP": 55, "NAMELSAD": "Ahnapee town", "GEOID": "5506100600" }, "geometry": { "type": "Point", "coordinates": [ -87.463199, 44.6319162 ] } },
{ "type": "Feature", "properties": { "name": "Carlton", "STATEFP": 55, "NAMELSAD": "Carlton town", "GEOID": "5506112575" }, "geometry": { "type": "Point", "coordinates": [ -87.5872245, 44.3768675 ] } },
{ "type": "Feature", "properties": { "name": "Egg Harbor", "STATEFP": 55, "NAMELSAD": "Egg Harbor town", "GEOID": "5502922875" }, "geometry": { "type": "Point", "coordinates": [ -87.3662965, 44.9713764 ] } },
{ "type": "Feature", "properties": { "name": "Liberty Grove", "STATEFP": 55, "NAMELSAD": "Liberty Grove town", "GEOID": "5502943925" }, "geometry": { "type": "Point", "coordinates": [ -87.0359154, 45.2462468 ] } },
{ "type": "Feature", "properties": { "name": "Sevastopol", "STATEFP": 55, "NAMELSAD": "Sevastopol town", "GEOID": "5502972600" }, "geometry": { "type": "Point", "coordinates": [ -87.2614483, 44.9015331 ] } },
{ "type": "Feature", "properties": { "name": "Centerville", "STATEFP": 55, "NAMELSAD": "Centerville town", "GEOID": "5507113750" }, "geometry": { "type": "Point", "coordinates": [ -87.7545605, 43.9405015 ] } },
{ "type": "Feature", "properties": { "name": "Manitowoc", "STATEFP": 55, "NAMELSAD": "Manitowoc town", "GEOID": "5507148525" }, "geometry": { "type": "Point", "coordinates": [ -87.6725365, 44.1355572 ] } },
{ "type": "Feature", "properties": { "name": "Two Rivers", "STATEFP": 55, "NAMELSAD": "Two Rivers town", "GEOID": "5507181350" }, "geometry": { "type": "Point", "coordinates": [ -87.5768, 44.1934489 ] } },
{ "type": "Feature", "properties": { "name": "Jacksonport", "STATEFP": 55, "NAMELSAD": "Jacksonport town", "GEOID": "5502937750" }, "geometry": { "type": "Point", "coordinates": [ -87.1768033, 44.9857955 ] } },
{ "type": "Feature", "properties": { "name": "Nasewaupee", "STATEFP": 55, "NAMELSAD": "Nasewaupee town", "GEOID": "5502955500" }, "geometry": { "type": "Point", "coordinates": [ -87.478683, 44.8395688 ] } },
{ "type": "Feature", "properties": { "name": "Union", "STATEFP": 55, "NAMELSAD": "Union town", "GEOID": "5502981525" }, "geometry": { "type": "Point", "coordinates": [ -87.7028459, 44.7190135 ] } },
{ "type": "Feature", "properties": { "name": "Washington", "STATEFP": 55, "NAMELSAD": "Washington town", "GEOID": "5502983600" }, "geometry": { "type": "Point", "coordinates": [ -86.9153051, 45.3857754 ] } },
{ "type": "Feature", "properties": { "name": "Little Suamico", "STATEFP": 55, "NAMELSAD": "Little Suamico town", "GEOID": "5508345275" }, "geometry": { "type": "Point", "coordinates": [ -88.059584, 44.7105633 ] } },
{ "type": "Feature", "properties": { "name": "Pensaukee", "STATEFP": 55, "NAMELSAD": "Pensaukee town", "GEOID": "5508361900" }, "geometry": { "type": "Point", "coordinates": [ -87.9624457, 44.7958361 ] } },
{ "type": "Feature", "properties": { "name": "Barksdale", "STATEFP": 55, "NAMELSAD": "Barksdale town", "GEOID": "5500704725" }, "geometry": { "type": "Point", "coordinates": [ -91.0654919, 46.6072404 ] } },
{ "type": "Feature", "properties": { "name": "Bayfield", "STATEFP": 55, "NAMELSAD": "Bayfield town", "GEOID": "5500705375" }, "geometry": { "type": "Point", "coordinates": [ -90.9535147, 46.8798013 ] } },
{ "type": "Feature", "properties": { "name": "Bayview", "STATEFP": 55, "NAMELSAD": "Bayview town", "GEOID": "5500705475" }, "geometry": { "type": "Point", "coordinates": [ -90.9021608, 46.7376925 ] } },
{ "type": "Feature", "properties": { "name": "Saxon", "STATEFP": 55, "NAMELSAD": "Saxon town", "GEOID": "5505171875" }, "geometry": { "type": "Point", "coordinates": [ -90.4194545, 46.4977382 ] } },
{ "type": "Feature", "properties": { "name": "Bell", "STATEFP": 55, "NAMELSAD": "Bell town", "GEOID": "5500706200" }, "geometry": { "type": "Point", "coordinates": [ -91.119366, 46.7754216 ] } },
{ "type": "Feature", "properties": { "name": "Clover", "STATEFP": 55, "NAMELSAD": "Clover town", "GEOID": "5500715750" }, "geometry": { "type": "Point", "coordinates": [ -91.2154718, 46.7814647 ] } },
{ "type": "Feature", "properties": { "name": "Eileen", "STATEFP": 55, "NAMELSAD": "Eileen town", "GEOID": "5500722925" }, "geometry": { "type": "Point", "coordinates": [ -90.9952098, 46.5401062 ] } },
{ "type": "Feature", "properties": { "name": "Orienta", "STATEFP": 55, "NAMELSAD": "Orienta town", "GEOID": "5500760275" }, "geometry": { "type": "Point", "coordinates": [ -91.4376445, 46.7207784 ] } },
{ "type": "Feature", "properties": { "name": "Port Wing", "STATEFP": 55, "NAMELSAD": "Port Wing town", "GEOID": "5500764512" }, "geometry": { "type": "Point", "coordinates": [ -91.335542, 46.7484133 ] } },
{ "type": "Feature", "properties": { "name": "Russell", "STATEFP": 55, "NAMELSAD": "Russell town", "GEOID": "5500770300" }, "geometry": { "type": "Point", "coordinates": [ -90.8468576, 46.9465217 ] } },
{ "type": "Feature", "properties": { "name": "Green Bay", "STATEFP": 55, "NAMELSAD": "Green Bay town", "GEOID": "5500931025" }, "geometry": { "type": "Point", "coordinates": [ -87.7958061, 44.5996195 ] } },
{ "type": "Feature", "properties": { "name": "Scott", "STATEFP": 55, "NAMELSAD": "Scott town", "GEOID": "5500972200" }, "geometry": { "type": "Point", "coordinates": [ -87.8946549, 44.587247 ] } },
{ "type": "Feature", "properties": { "name": "Baileys Harbor", "STATEFP": 55, "NAMELSAD": "Baileys Harbor town", "GEOID": "5502904325" }, "geometry": { "type": "Point", "coordinates": [ -87.0879355, 45.067811 ] } },
{ "type": "Feature", "properties": { "name": "Clay Banks", "STATEFP": 55, "NAMELSAD": "Clay Banks town", "GEOID": "5502915025" }, "geometry": { "type": "Point", "coordinates": [ -87.3423149, 44.7248581 ] } },
{ "type": "Feature", "properties": { "name": "Gardner", "STATEFP": 55, "NAMELSAD": "Gardner town", "GEOID": "5502928300" }, "geometry": { "type": "Point", "coordinates": [ -87.5804802, 44.8497523 ] } },
{ "type": "Feature", "properties": { "name": "Gibraltar", "STATEFP": 55, "NAMELSAD": "Gibraltar town", "GEOID": "5502928950" }, "geometry": { "type": "Point", "coordinates": [ -87.2662962, 45.1730922 ] } },
{ "type": "Feature", "properties": { "name": "Sturgeon Bay", "STATEFP": 55, "NAMELSAD": "Sturgeon Bay town", "GEOID": "5502977900" }, "geometry": { "type": "Point", "coordinates": [ -87.27913, 44.8266505 ] } }
]
}
