{
"type": "FeatureCollection",
"crs": { "type": "name", "properties": { "name": "urn:ogc:def:crs:OGC:1.3:CRS84" } },
                                                                                
"features": [
{ "type": "Feature", "properties": { "OBJECTID": 1153, "Name": "BCycle", "Status": "EX", "Year": 2011, "Jurisdicti": null, "Location": "3330 Atwood Avenue", "Source": "Ortho 2013", "Comments": null, "created_us": null, "created_da": null, "last_edite": "PLJPG", "last_edi_1": "2016-01-15T20:34:41.000Z", "ExtID": 1 }, "geometry": { "type": "Point", "coordinates": [ -89.336742365327467, 43.09297903637966 ] } },
{ "type": "Feature", "properties": { "OBJECTID": 1154, "Name": "BCycle", "Status": "EX", "Year": 2011, "Jurisdicti": null, "Location": "2048 Eastwood Dr", "Source": "Ortho 2013", "Comments": null, "created_us": null, "created_da": null, "last_edite": "PLJPG", "last_edi_1": "2016-01-15T20:34:35.000Z", "ExtID": 2 }, "geometry": { "type": "Point", "coordinates": [ -89.351427357662942, 43.092409864638014 ] } },
{ "type": "Feature", "properties": { "OBJECTID": 1155, "Name": "BCycle", "Status": "EX", "Year": 2011, "Jurisdicti": null, "Location": "N Thornton at Tenney Park", "Source": "Ortho 2013", "Comments": null, "created_us": null, "created_da": null, "last_edite": "PLJPG", "last_edi_1": "2016-01-15T20:34:28.000Z", "ExtID": 3 }, "geometry": { "type": "Point", "coordinates": [ -89.366181686590409, 43.092320805351115 ] } },
{ "type": "Feature", "properties": { "OBJECTID": 1156, "Name": "BCycle", "Status": "EX", "Year": 2011, "Jurisdicti": null, "Location": "988 E Gorham Street", "Source": "Ortho 2013", "Comments": null, "created_us": null, "created_da": null, "last_edite": "PLJPG", "last_edi_1": "2016-01-15T20:33:56.000Z", "ExtID": 4 }, "geometry": { "type": "Point", "coordinates": [ -89.375499633197563, 43.086321465672846 ] } },
{ "type": "Feature", "properties": { "OBJECTID": 1157, "Name": "BCycle", "Status": "EX", "Year": 2011, "Jurisdicti": null, "Location": "387 S Few Street", "Source": "Ortho 2013", "Comments": null, "created_us": null, "created_da": null, "last_edite": "PLJPG", "last_edi_1": "2016-01-15T20:34:03.000Z", "ExtID": 5 }, "geometry": { "type": "Point", "coordinates": [ -89.364581505716046, 43.083344249833317 ] } },
{ "type": "Feature", "properties": { "OBJECTID": 1158, "Name": "BCycle", "Status": "EX", "Year": 2012, "Jurisdicti": null, "Location": "706 Williamson Street", "Source": "Ortho 2013", "Comments": null, "created_us": null, "created_da": null, "last_edite": "PLJPG", "last_edi_1": "2016-01-15T20:33:51.000Z", "ExtID": 6 }, "geometry": { "type": "Point", "coordinates": [ -89.372906950346248, 43.077033267082157 ] } },
{ "type": "Feature", "properties": { "OBJECTID": 1159, "Name": "BCycle", "Status": "EX", "Year": 2011, "Jurisdicti": null, "Location": "472 E Gorham Street", "Source": "Ortho 2013", "Comments": null, "created_us": null, "created_da": null, "last_edite": "PLJPG", "last_edi_1": "2016-01-15T20:33:01.000Z", "ExtID": 7 }, "geometry": { "type": "Point", "coordinates": [ -89.383746829849187, 43.080519004898328 ] } },
{ "type": "Feature", "properties": { "OBJECTID": 1160, "Name": "BCycle", "Status": "EX", "Year": 2011, "Jurisdicti": null, "Location": "N Webster at E Mifflin", "Source": "Ortho 2013", "Comments": null, "created_us": null, "created_da": null, "last_edite": "PLJPG", "last_edi_1": "2016-01-15T20:33:07.000Z", "ExtID": 8 }, "geometry": { "type": "Point", "coordinates": [ -89.383513421631875, 43.077309433030408 ] } },
{ "type": "Feature", "properties": { "OBJECTID": 1161, "Name": "BCycle", "Status": "EX", "Year": 2011, "Jurisdicti": null, "Location": "117 Wisconsin Avenue", "Source": "Ortho 2013", "Comments": null, "created_us": null, "created_da": null, "last_edite": "PLJPG", "last_edi_1": "2016-01-15T20:32:56.000Z", "ExtID": 9 }, "geometry": { "type": "Point", "coordinates": [ -89.385304701932398, 43.075732788295497 ] } },
{ "type": "Feature", "properties": { "OBJECTID": 1162, "Name": "BCycle", "Status": "EX", "Year": 2011, "Jurisdicti": null, "Location": "E Main St at MLK - Special Event Use", "Source": "Ortho 2013", "Comments": null, "created_us": null, "created_da": null, "last_edite": "PLJPG", "last_edi_1": "2016-01-15T20:33:15.000Z", "ExtID": 10 }, "geometry": { "type": "Point", "coordinates": [ -89.384076276587038, 43.072971434219944 ] } },
{ "type": "Feature", "properties": { "OBJECTID": 1163, "Name": "BCycle", "Status": "EX", "Year": 2011, "Jurisdicti": null, "Location": "22 W Wilson Street", "Source": "Ortho 2013", "Comments": null, "created_us": null, "created_da": null, "last_edite": "PLJPG", "last_edi_1": "2016-01-15T20:33:21.000Z", "ExtID": 11 }, "geometry": { "type": "Point", "coordinates": [ -89.381726476728602, 43.072400781677999 ] } },
{ "type": "Feature", "properties": { "OBJECTID": 1164, "Name": "BCycle", "Status": "EX", "Year": 2011, "Jurisdicti": null, "Location": "38 E Willson Street", "Source": "Ortho 2013", "Comments": null, "created_us": null, "created_da": null, "last_edite": "PLJPG", "last_edi_1": "2016-01-15T20:33:27.000Z", "ExtID": 12 }, "geometry": { "type": "Point", "coordinates": [ -89.380908715575984, 43.072999366533587 ] } },
{ "type": "Feature", "properties": { "OBJECTID": 1165, "Name": "BCycle", "Status": "EX", "Year": 2011, "Jurisdicti": null, "Location": "242 South Pinckney Street", "Source": "Ortho 2013", "Comments": null, "created_us": null, "created_da": null, "last_edite": "PLJPG", "last_edi_1": "2016-01-15T20:33:33.000Z", "ExtID": 13 }, "geometry": { "type": "Point", "coordinates": [ -89.380665862477713, 43.073585929587367 ] } },
{ "type": "Feature", "properties": { "OBJECTID": 1166, "Name": "BCycle", "Status": "EX", "Year": 2012, "Jurisdicti": null, "Location": "John Nolen Drive at Law Park", "Source": "Ortho 2013", "Comments": null, "created_us": null, "created_da": null, "last_edite": "PLJPG", "last_edi_1": "2016-01-15T20:33:38.000Z", "ExtID": 14 }, "geometry": { "type": "Point", "coordinates": [ -89.37550274419479, 43.075480945113114 ] } },
{ "type": "Feature", "properties": { "OBJECTID": 1167, "Name": "BCycle", "Status": "EX", "Year": 2011, "Jurisdicti": null, "Location": "229 W Gilman Street", "Source": "Ortho 2013", "Comments": null, "created_us": null, "created_da": null, "last_edite": "PLJPG", "last_edi_1": "2016-01-15T20:32:43.000Z", "ExtID": 15 }, "geometry": { "type": "Point", "coordinates": [ -89.392464853798799, 43.075292724710806 ] } },
{ "type": "Feature", "properties": { "OBJECTID": 1168, "Name": "BCycle", "Status": "EX", "Year": 2011, "Jurisdicti": null, "Location": "150 North Shore Drive - Brittingham Park", "Source": "Ortho 2013", "Comments": null, "created_us": null, "created_da": null, "last_edite": "PLJPG", "last_edi_1": "2016-01-15T20:31:12.000Z", "ExtID": 16 }, "geometry": { "type": "Point", "coordinates": [ -89.388884270715891, 43.065082119006725 ] } },
{ "type": "Feature", "properties": { "OBJECTID": 1169, "Name": "BCycle", "Status": "EX", "Year": 2011, "Jurisdicti": null, "Location": "677 W Washington Avenue", "Source": "Ortho 2013", "Comments": null, "created_us": null, "created_da": null, "last_edite": "PLJPG", "last_edi_1": "2016-01-15T20:31:17.000Z", "ExtID": 17 }, "geometry": { "type": "Point", "coordinates": [ -89.394264502367307, 43.067361540015042 ] } },
{ "type": "Feature", "properties": { "OBJECTID": 1170, "Name": "BCycle", "Status": "EX", "Year": 2011, "Jurisdicti": null, "Location": "N. Park Street at Spring Street", "Source": "Ortho 2013", "Comments": null, "created_us": null, "created_da": null, "last_edite": "PLJPG", "last_edi_1": "2016-01-15T20:31:03.000Z", "ExtID": 18 }, "geometry": { "type": "Point", "coordinates": [ -89.401295087225535, 43.069528498847475 ] } },
{ "type": "Feature", "properties": { "OBJECTID": 1171, "Name": "BCycle", "Status": "EX", "Year": 2011, "Jurisdicti": null, "Location": "619 State Street", "Source": "Ortho 2013", "Comments": null, "created_us": null, "created_da": null, "last_edite": "PLJPG", "last_edi_1": "2016-01-15T20:32:29.000Z", "ExtID": 19 }, "geometry": { "type": "Point", "coordinates": [ -89.396611651424919, 43.07472338595538 ] } },
{ "type": "Feature", "properties": { "OBJECTID": 1172, "Name": "BCycle", "Status": "EX", "Year": 2012, "Jurisdicti": null, "Location": "381 N Lake Street", "Source": "Ortho 2013", "Comments": null, "created_us": null, "created_da": null, "last_edite": "PLJPG", "last_edi_1": "2016-01-15T20:32:34.000Z", "ExtID": 20 }, "geometry": { "type": "Point", "coordinates": [ -89.397279850908831, 43.072983826916285 ] } },
{ "type": "Feature", "properties": { "OBJECTID": 1173, "Name": "BCycle", "Status": "EX", "Year": 2011, "Jurisdicti": null, "Location": "Union South", "Source": "Ortho 2013", "Comments": null, "created_us": null, "created_da": null, "last_edite": "PLJPG", "last_edi_1": "2016-01-15T20:30:45.000Z", "ExtID": 21 }, "geometry": { "type": "Point", "coordinates": [ -89.407906462338715, 43.072119878444653 ] } },
{ "type": "Feature", "properties": { "OBJECTID": 1174, "Name": "BCycle", "Status": "EX", "Year": 2011, "Jurisdicti": null, "Location": "92 S Breese Terrace", "Source": "Ortho 2013", "Comments": null, "created_us": null, "created_da": null, "last_edite": "PLJPG", "last_edi_1": "2016-01-15T20:29:29.000Z", "ExtID": 22 }, "geometry": { "type": "Point", "coordinates": [ -89.414056200410755, 43.067608920405441 ] } },
{ "type": "Feature", "properties": { "OBJECTID": 1175, "Name": "BCycle", "Status": "EX", "Year": 2012, "Jurisdicti": null, "Location": "797 Harrison Street", "Source": "Ortho 2013", "Comments": null, "created_us": null, "created_da": null, "last_edite": "PLJPG", "last_edi_1": "2016-01-15T20:29:21.000Z", "ExtID": 23 }, "geometry": { "type": "Point", "coordinates": [ -89.417603396913364, 43.064825844669663 ] } },
{ "type": "Feature", "properties": { "OBJECTID": 1176, "Name": "BCycle", "Status": "EX", "Year": 2011, "Jurisdicti": null, "Location": "850 South Mills Street", "Source": "Ortho 2013", "Comments": null, "created_us": null, "created_da": null, "last_edite": "PLJPG", "last_edi_1": "2016-01-15T20:29:37.000Z", "ExtID": 24 }, "geometry": { "type": "Point", "coordinates": [ -89.404228613221889, 43.057157640975831 ] } },
{ "type": "Feature", "properties": { "OBJECTID": 1177, "Name": "BCycle", "Status": "EX", "Year": 2011, "Jurisdicti": null, "Location": "Observatory Dr at Natatorium Gym", "Source": "Ortho 2013", "Comments": null, "created_us": null, "created_da": null, "last_edite": "PLJPG", "last_edi_1": "2016-01-15T20:28:57.000Z", "ExtID": 25 }, "geometry": { "type": "Point", "coordinates": [ -89.420363390678503, 43.07661794614576 ] } },
{ "type": "Feature", "properties": { "OBJECTID": 1178, "Name": "BCycle", "Status": "EX", "Year": 2011, "Jurisdicti": null, "Location": "Observatory Dr at UW Hospital", "Source": "Ortho 2013", "Comments": null, "created_us": null, "created_da": null, "last_edite": "PLJPG", "last_edi_1": "2016-01-15T20:28:45.000Z", "ExtID": 26 }, "geometry": { "type": "Point", "coordinates": [ -89.43089250124892, 43.077204103350837 ] } },
{ "type": "Feature", "properties": { "OBJECTID": 1179, "Name": "BCycle", "Status": "EX", "Year": 2011, "Jurisdicti": null, "Location": "University Avenue and Charter Street", "Source": "Ortho 2013", "Comments": null, "created_us": null, "created_da": null, "last_edite": "PLJPG", "last_edi_1": "2016-01-15T20:30:52.000Z", "ExtID": 27 }, "geometry": { "type": "Point", "coordinates": [ -89.406344063665756, 43.073565331855278 ] } },
{ "type": "Feature", "properties": { "OBJECTID": 1180, "Name": "BCycle", "Status": "EX", "Year": 2012, "Jurisdicti": null, "Location": "701 Knickerbocker Street", "Source": "Ortho 2013", "Comments": null, "created_us": null, "created_da": null, "last_edite": "PLJPG", "last_edi_1": "2016-01-15T20:29:12.000Z", "ExtID": 28 }, "geometry": { "type": "Point", "coordinates": [ -89.428686269053173, 43.057059584441532 ] } },
{ "type": "Feature", "properties": { "OBJECTID": 1181, "Name": "BCycle", "Status": "EX", "Year": 2012, "Jurisdicti": null, "Location": "1702 Rimrock Road", "Source": "Ortho 2013", "Comments": null, "created_us": null, "created_da": null, "last_edite": "PLJPG", "last_edi_1": "2016-01-15T20:35:28.000Z", "ExtID": 29 }, "geometry": { "type": "Point", "coordinates": [ -89.373873726773795, 43.047215201429218 ] } },
{ "type": "Feature", "properties": { "OBJECTID": 1182, "Name": "BCycle", "Status": "EX", "Year": 2012, "Jurisdicti": null, "Location": "504 University Avenue", "Source": "Ortho 2013", "Comments": null, "created_us": null, "created_da": null, "last_edite": "PLJPG", "last_edi_1": "2016-01-15T20:32:39.000Z", "ExtID": 30 }, "geometry": { "type": "Point", "coordinates": [ -89.394258647796264, 43.073272912177615 ] } },
{ "type": "Feature", "properties": { "OBJECTID": 1183, "Name": "BCycle", "Status": "EX", "Year": 2014, "Jurisdicti": null, "Location": "726 N Midvale Blvd", "Source": null, "Comments": null, "created_us": "PLJPG", "created_da": "2014-03-24T10:42:46.000Z", "last_edite": "PLJPG", "last_edi_1": "2016-01-15T20:27:40.000Z", "ExtID": 31 }, "geometry": { "type": "Point", "coordinates": [ -89.452836238279275, 43.074364541736735 ] } },
{ "type": "Feature", "properties": { "OBJECTID": 1184, "Name": "BCycle", "Status": "EX", "Year": 2012, "Jurisdicti": null, "Location": "633 Langdon Street", "Source": null, "Comments": null, "created_us": "PLJPG", "created_da": "2014-03-24T11:37:25.000Z", "last_edite": "PLJPG", "last_edi_1": "2016-01-15T20:32:23.000Z", "ExtID": 32 }, "geometry": { "type": "Point", "coordinates": [ -89.397038435671803, 43.075738895163092 ] } },
{ "type": "Feature", "properties": { "OBJECTID": 1185, "Name": "BCycle", "Status": "EX", "Year": 2014, "Jurisdicti": null, "Location": "750 University Row", "Source": null, "Comments": null, "created_us": "PLJPG", "created_da": "2015-06-10T17:49:27.000Z", "last_edite": "PLJPG", "last_edi_1": "2016-01-15T20:26:05.000Z", "ExtID": 33 }, "geometry": { "type": "Point", "coordinates": [ -89.469025561864314, 43.076773591928038 ] } },
{ "type": "Feature", "properties": { "OBJECTID": 1186, "Name": "BCycle", "Status": "EX", "Year": 2014, "Jurisdicti": null, "Location": "3750 University Avenue", "Source": null, "Comments": null, "created_us": "PLJPG", "created_da": "2015-06-10T17:51:57.000Z", "last_edite": "PLJPG", "last_edi_1": "2016-01-15T20:28:15.000Z", "ExtID": 34 }, "geometry": { "type": "Point", "coordinates": [ -89.450827829777353, 43.076597518610107 ] } },
{ "type": "Feature", "properties": { "OBJECTID": 1187, "Name": "BCycle", "Status": "EX", "Year": 2014, "Jurisdicti": null, "Location": "2880 University Avenue", "Source": null, "Comments": null, "created_us": "PLJPG", "created_da": "2015-06-15T18:27:40.000Z", "last_edite": "PLJPG", "last_edi_1": "2016-01-15T20:28:27.000Z", "ExtID": 35 }, "geometry": { "type": "Point", "coordinates": [ -89.438471026871994, 43.076358136475918 ] } },
{ "type": "Feature", "properties": { "OBJECTID": 1188, "Name": "BCycle", "Status": "EX", "Year": 2014, "Jurisdicti": null, "Location": "900 University Bay Drive", "Source": null, "Comments": null, "created_us": "PLJPG", "created_da": "2015-06-15T18:29:04.000Z", "last_edite": "PLJPG", "last_edi_1": "2016-01-15T20:28:35.000Z", "ExtID": 36 }, "geometry": { "type": "Point", "coordinates": [ -89.433923414678773, 43.075910597465885 ] } },
{ "type": "Feature", "properties": { "OBJECTID": 1189, "Name": "BCycle", "Status": "EX", "Year": 2012, "Jurisdicti": null, "Location": "126 West Mifflin Street", "Source": null, "Comments": null, "created_us": "PLJPG", "created_da": "2015-06-15T18:42:24.000Z", "last_edite": "PLJPG", "last_edi_1": "2016-01-15T20:32:50.000Z", "ExtID": 37 }, "geometry": { "type": "Point", "coordinates": [ -89.387861872763821, 43.073624806406393 ] } },
{ "type": "Feature", "properties": { "OBJECTID": 1190, "Name": "BCycle", "Status": "EX", "Year": 2011, "Jurisdicti": null, "Location": "699 North Park Street", "Source": null, "Comments": null, "created_us": "PLJPG", "created_da": "2015-06-15T18:45:09.000Z", "last_edite": "PLJPG", "last_edi_1": "2016-01-15T20:30:58.000Z", "ExtID": 38 }, "geometry": { "type": "Point", "coordinates": [ -89.40062855088695, 43.07702275149191 ] } },
{ "type": "Feature", "properties": { "OBJECTID": 1191, "Name": "BCycle", "Status": "EX", "Year": 2015, "Jurisdicti": null, "Location": "1705 Hoffman Street", "Source": null, "Comments": null, "created_us": "PLJPG", "created_da": "2016-01-15T20:44:08.000Z", "last_edite": "PLDMS", "last_edi_1": "2016-08-03T19:09:31.000Z", "ExtID": 39 }, "geometry": { "type": "Point", "coordinates": [ -89.330737573521915, 43.12127937725792 ] } },
{ "type": "Feature", "properties": { "OBJECTID": 1192, "Name": "BCycle", "Status": "EX", "Year": 2016, "Jurisdicti": null, "Location": "424 N Pinckney Street", "Source": null, "Comments": null, "created_us": "PLJPG", "created_da": "2016-05-03T15:25:16.000Z", "last_edite": "PLDMS", "last_edi_1": "2016-08-03T19:09:33.000Z", "ExtID": 40 }, "geometry": { "type": "Point", "coordinates": [ -89.387563970141656, 43.07861205639815 ] } }
]
}
